#BESTPOSA,USB3,0,53.0,FINESTEERING,2354,599454.450,02000000,cdba,17399;SOL_COMPUTED,SINGLE,51.07919260359,-114.13046040839,1115.0565,-16.6000,WGS84,1.3822,1.2796,2.8365,"",0.000,0.000,31,22,22,21,00,06,35,33*5dd5b29a
#BESTXYZA,USB3,0,53.0,FINESTEERING,2354,599454.450,02000000,44cf,17399;SOL_COMPUTED,SINGLE,-1641750.7733,-3664951.2757,4939938.8785,1.7128,2.0872,2.0744,SOL_COMPUTED,DOPPLER_VELOCITY,0.8269,0.7472,0.8764,0.0389,0.0375,0.0492,"",0.000,0.000,0.000,31,22,22,21,0,06,35,33*f6308458
#BESTVELA,USB3,0,53.0,FINESTEERING,2354,599454.450,02000000,10a2,17399;SOL_COMPUTED,DOPPLER_VELOCITY,0.000,0.000,1.4172,18.480412,0.0410,0*d1dd599c
#BESTPOSA,USB3,0,53.0,FINESTEERING,2354,599454.500,02000000,cdba,17399;SOL_COMPUTED,SINGLE,51.07919340615,-114.13045983032,1115.0161,-16.6000,WGS84,1.3828,1.2801,2.8377,"",0.000,0.000,31,22,22,21,00,06,35,33*56b60754
#BESTXYZA,USB3,0,53.0,FINESTEERING,2354,599454.500,02000000,44cf,17399;SOL_COMPUTED,SINGLE,-1641750.6976,-3664951.2057,4939938.9032,1.7131,2.0874,2.0763,SOL_COMPUTED,DOPPLER_VELOCITY,0.7992,0.8369,0.7435,0.0389,0.0375,0.0492,"",0.000,0.000,0.000,31,22,22,21,0,06,35,33*7b6e9eff
#BESTVELA,USB3,0,53.0,FINESTEERING,2354,599454.500,02000000,10a2,17399;SOL_COMPUTED,DOPPLER_VELOCITY,0.000,0.000,1.3713,16.402615,-0.1066,0*4b7e032b
#BESTPOSA,USB3,0,53.0,FINESTEERING,2354,599454.550,02000000,cdba,17399;SOL_COMPUTED,SINGLE,51.07919391320,-114.13045954412,1114.9918,-16.6000,WGS84,1.3825,1.2798,2.8370,"",0.000,0.000,31,22,22,21,00,06,35,33*3917ad4e
#BESTXYZA,USB3,0,53.0,FINESTEERING,2354,599454.550,02000000,44cf,17399;SOL_COMPUTED,SINGLE,-1641750.6551,-3664951.1599,4939938.9197,1.7127,2.0869,2.0758,SOL_COMPUTED,DOPPLER_VELOCITY,0.8419,0.9038,0.5688,0.0389,0.0375,0.0492,"",0.000,0.000,0.000,31,22,22,21,0,06,35,33*bda05947
#BESTVELA,USB3,0,53.0,FINESTEERING,2354,599454.550,02000000,10a2,17399;SOL_COMPUTED,DOPPLER_VELOCITY,0.000,0.000,1.3282,17.478131,-0.2919,0*0cc4a73c
#BESTPOSA,USB3,0,53.0,FINESTEERING,2354,599454.600,02000000,cdba,17399;SOL_COMPUTED,SINGLE,51.07919379381,-114.13046027509,1115.1739,-16.6000,WGS84,1.3751,1.2734,2.8192,"",0.000,0.000,31,22,22,21,00,06,35,33*0ab0c0be
#BESTXYZA,USB3,0,53.0,FINESTEERING,2354,599454.600,02000000,44cf,17399;SOL_COMPUTED,SINGLE,-1641750.7528,-3664951.2528,4939939.0530,1.6960,2.0743,2.0691,SOL_COMPUTED,DOPPLER_VELOCITY,0.8390,0.9113,0.5402,0.0389,0.0375,0.0492,"",0.000,0.000,0.000,31,22,22,21,0,06,35,33*22099a52
#BESTVELA,USB3,0,53.0,FINESTEERING,2354,599454.600,02000000,10a2,17399;SOL_COMPUTED,DOPPLER_VELOCITY,0.000,0.000,1.3135,17.416430,-0.3177,0*35143829
#BESTPOSA,USB3,0,53.0,FINESTEERING,2354,599454.650,02000000,cdba,17399;SOL_COMPUTED,SINGLE,51.07919475641,-114.13045939964,1115.0770,-16.6000,WGS84,1.3786,1.2765,2.8278,"",0.000,0.000,31,22,22,21,00,06,35,33*701df185
#BESTXYZA,USB3,0,53.0,FINESTEERING,2354,599454.650,02000000,44cf,17399;SOL_COMPUTED,SINGLE,-1641750.6379,-3664951.1462,4939939.0449,1.7036,2.0799,2.0731,SOL_COMPUTED,DOPPLER_VELOCITY,0.8318,0.8741,0.5226,0.0389,0.0375,0.0492,"",0.000,0.000,0.000,31,22,22,21,0,06,35,33*93ef2b02
#BESTVELA,USB3,0,53.0,FINESTEERING,2354,599454.650,02000000,10a2,17399;SOL_COMPUTED,DOPPLER_VELOCITY,0.000,0.000,1.2784,18.318594,-0.3082,0*15695e2c
#BESTPOSA,USB3,0,53.0,FINESTEERING,2354,599454.700,02000000,cdba,17399;SOL_COMPUTED,SINGLE,51.07919610548,-114.13045797413,1114.8889,-16.6000,WGS84,1.3849,1.2819,2.8435,"",0.000,0.000,29,21,21,21,00,06,35,33*1ef80e65
#BESTVELA,USB3,0,53.0,FINESTEERING,2354,599454.700,02000000,10a2,17399;SOL_COMPUTED,DOPPLER_VELOCITY,0.000,0.000,1.2756,17.041678,-0.1772,0*dfaf75db
#BESTXYZA,USB3,0,53.0,FINESTEERING,2354,599454.700,02000000,44cf,17399;SOL_COMPUTED,SINGLE,-1641750.4506,-3664950.9727,4939938.9929,1.7195,2.0916,2.0774,SOL_COMPUTED,DOPPLER_VELOCITY,0.7746,0.8147,0.6284,0.0389,0.0375,0.0492,"",0.000,0.000,0.000,29,21,21,21,0,06,35,33*f8435094
#BESTPOSA,USB3,0,53.0,FINESTEERING,2354,599454.750,02000000,cdba,17399;SOL_COMPUTED,SINGLE,51.07919676472,-114.13045766974,1114.9003,-16.6000,WGS84,1.3845,1.2817,2.8430,"",0.000,0.000,30,21,21,21,00,06,35,33*2ea2ac6e
#BESTXYZA,USB3,0,53.0,FINESTEERING,2354,599454.750,02000000,44cf,17399;SOL_COMPUTED,SINGLE,-1641750.4107,-3664950.9358,4939939.0478,1.7195,2.0914,2.0764,SOL_COMPUTED,DOPPLER_VELOCITY,0.6921,0.7175,0.8241,0.0389,0.0375,0.0492,"",0.000,0.000,0.000,30,21,21,21,0,06,35,33*176082e5
#BESTVELA,USB3,0,53.0,FINESTEERING,2354,599454.750,02000000,10a2,17399;SOL_COMPUTED,DOPPLER_VELOCITY,0.000,0.000,1.2923,15.173804,0.0521,0*db60c0a4
#BESTPOSA,USB3,0,53.0,FINESTEERING,2354,599454.800,02000000,cdba,17399;SOL_COMPUTED,SINGLE,51.07919610006,-114.13045921379,1115.2082,-16.6000,WGS84,1.3721,1.2711,2.8131,"",0.000,0.000,31,22,22,21,00,06,35,33*cd590073
#BESTXYZA,USB3,0,53.0,FINESTEERING,2354,599454.800,02000000,44cf,17399;SOL_COMPUTED,SINGLE,-1641750.6121,-3664951.1206,4939939.2409,1.6919,2.0706,2.0645,SOL_COMPUTED,DOPPLER_VELOCITY,0.6100,0.6456,0.9549,0.0389,0.0375,0.0492,"",0.000,0.000,0.000,31,22,22,21,0,06,35,33*9e3a91b8
#BESTVELA,USB3,0,53.0,FINESTEERING,2354,599454.800,02000000,10a2,17399;SOL_COMPUTED,DOPPLER_VELOCITY,0.000,0.000,1.2861,13.158878,0.2161,0*f05bc255
#BESTPOSA,USB3,0,53.0,FINESTEERING,2354,599454.850,02000000,cdba,17399;SOL_COMPUTED,SINGLE,51.07919645778,-114.13045936491,1115.2785,-16.6000,WGS84,1.3700,1.2693,2.8080,"",0.000,0.000,31,22,22,21,00,06,35,33*c04849c9
#BESTXYZA,USB3,0,53.0,FINESTEERING,2354,599454.850,02000000,44cf,17399;SOL_COMPUTED,SINGLE,-1641750.6272,-3664951.1284,4939939.3207,1.6866,2.0668,2.0631,SOL_COMPUTED,DOPPLER_VELOCITY,0.5193,0.6521,1.0779,0.0371,0.0365,0.0486,"",0.000,0.000,0.000,31,22,22,21,0,06,35,33*cea81f9f
#BESTVELA,USB3,0,53.0,FINESTEERING,2354,599454.850,02000000,10a2,17399;SOL_COMPUTED,DOPPLER_VELOCITY,0.000,0.000,1.3217,9.025037,0.3313,0*aa1c77c7
#BESTPOSA,USB3,0,53.0,FINESTEERING,2354,599454.900,02000000,cdba,17399;SOL_COMPUTED,SINGLE,51.07919860882,-114.13045705377,1114.9328,-16.6000,WGS84,1.3838,1.2812,2.8418,"",0.000,0.000,30,21,21,21,00,06,35,33*ff8c954d
#BESTXYZA,USB3,0,53.0,FINESTEERING,2354,599454.900,02000000,44cf,17399;SOL_COMPUTED,SINGLE,-1641750.3144,-3664950.8264,4939939.2020,1.7193,2.0913,2.0743,SOL_COMPUTED,DOPPLER_VELOCITY,0.4617,0.7414,1.1339,0.0389,0.0376,0.0503,"",0.000,0.000,0.000,30,21,21,21,0,06,35,33*5fcec163
#BESTVELA,USB3,0,53.0,FINESTEERING,2354,599454.900,02000000,10a2,17399;SOL_COMPUTED,DOPPLER_VELOCITY,0.000,0.000,1.3906,4.878869,0.3385,0*8461156b
#BESTPOSA,USB3,0,53.0,FINESTEERING,2354,599454.950,02000000,cdba,17399;SOL_COMPUTED,SINGLE,51.07919763611,-114.13045938032,1115.3204,-16.6000,WGS84,1.3695,1.2690,2.8071,"",0.000,0.000,31,22,22,22,00,06,35,33*6265d736
#BESTXYZA,USB3,0,53.0,FINESTEERING,2354,599454.950,02000000,44cf,17399;SOL_COMPUTED,SINGLE,-1641750.5972,-3664951.0588,4939939.4356,1.6859,2.0664,2.0626,SOL_COMPUTED,DOPPLER_VELOCITY,0.4334,0.9365,1.0587,0.0389,0.0375,0.0492,"",0.000,0.000,0.000,31,22,22,22,0,06,35,33*c2643f0b
#BESTVELA,USB3,0,53.0,FINESTEERING,2354,599454.950,02000000,10a2,17399;SOL_COMPUTED,DOPPLER_VELOCITY,0.000,0.000,1.4680,0.493308,0.1754,0*a5bc7017
#BESTPOSA,USB3,0,53.0,FINESTEERING,2354,599455.000,02000000,cdba,17399;SOL_COMPUTED,SINGLE,51.07919993211,-114.13045706624,1114.9051,-16.6000,WGS84,1.3839,1.2815,2.8421,"",0.000,0.000,30,21,21,21,00,06,35,33*8ee1ec7f
#BESTXYZA,USB3,0,53.0,FINESTEERING,2354,599455.000,02000000,44cf,17399;SOL_COMPUTED,SINGLE,-1641750.2613,-3664950.7056,4939939.2730,1.7198,2.0915,2.0742,SOL_COMPUTED,DOPPLER_VELOCITY,0.4629,1.1528,0.8642,0.0389,0.0375,0.0492,"",0.000,0.000,0.000,30,21,21,21,0,06,35,33*ee231129
#BESTVELA,USB3,0,53.0,FINESTEERING,2354,599455.000,02000000,10a2,17399;SOL_COMPUTED,DOPPLER_VELOCITY,0.000,0.000,1.5094,358.147652,-0.1075,0*a1f67a30
#BESTPOSA,USB3,0,53.0,FINESTEERING,2354,599455.050,02000000,cdba,17399;SOL_COMPUTED,SINGLE,51.07919880389,-114.13045954722,1115.3362,-16.6000,WGS84,1.3679,1.2681,2.8036,"",0.000,0.000,31,22,22,21,00,06,35,33*b9afd61a
#BESTXYZA,USB3,0,53.0,FINESTEERING,2354,599455.050,02000000,44cf,17399;SOL_COMPUTED,SINGLE,-1641750.5706,-3664950.9709,4939939.5296,1.6828,2.0637,2.0612,SOL_COMPUTED,DOPPLER_VELOCITY,0.4852,1.2741,0.6999,0.0389,0.0375,0.0492,"",0.000,0.000,0.000,31,22,22,21,0,06,35,33*82e38a94
#BESTVELA,USB3,0,53.0,FINESTEERING,2354,599455.050,02000000,10a2,17399;SOL_COMPUTED,DOPPLER_VELOCITY,0.000,0.000,1.5008,357.017776,-0.3106,0*8a717886
#BESTPOSA,USB3,0,57.5,FINESTEERING,2354,599455.100,02000000,cdba,17399;SOL_COMPUTED,SINGLE,51.07919928793,-114.13045972619,1115.3332,-16.6000,WGS84,1.3669,1.2673,2.8011,"",0.000,0.000,31,22,22,21,00,06,35,33*32018c64
#BESTXYZA,USB3,0,57.5,FINESTEERING,2354,599455.100,02000000,44cf,17399;SOL_COMPUTED,SINGLE,-1641750.5642,-3664950.9258,4939939.5611,1.6807,2.0620,2.0602,SOL_COMPUTED,DOPPLER_VELOCITY,0.4986,1.2841,0.6137,0.0371,0.0367,0.0494,"",0.000,0.000,0.000,31,22,22,21,0,06,35,33*4056f0b8
#BESTVELA,USB3,0,57.5,FINESTEERING,2354,599455.100,02000000,10a2,17399;SOL_COMPUTED,DOPPLER_VELOCITY,0.000,0.000,1.4575,357.249357,-0.3868,0*7238ae49
#BESTPOSA,USB3,0,57.5,FINESTEERING,2354,599455.150,02000000,cdba,17399;SOL_COMPUTED,SINGLE,51.07920191932,-114.13045675494,1114.8567,-16.6000,WGS84,1.3834,1.2816,2.8416,"",0.000,0.000,30,21,21,21,00,06,35,33*0ade8ce9
#BESTXYZA,USB3,0,57.5,FINESTEERING,2354,599455.150,02000000,44cf,17399;SOL_COMPUTED,SINGLE,-1641750.1586,-3664950.5298,4939939.3742,1.7208,2.0915,2.0725,SOL_COMPUTED,DOPPLER_VELOCITY,0.5613,1.2244,0.5860,0.0389,0.0384,0.0492,"",0.000,0.000,0.000,30,21,21,21,0,06,35,33*27f9d8a8
#BESTVELA,USB3,0,57.5,FINESTEERING,2354,599455.150,02000000,10a2,17399;SOL_COMPUTED,DOPPLER_VELOCITY,0.000,0.000,1.4160,0.474598,-0.3902,0*151b4973
#BESTPOSA,USB3,0,57.5,FINESTEERING,2354,599455.200,02000000,cdba,17399;SOL_COMPUTED,SINGLE,51.07920254487,-114.13045655971,1114.8547,-16.6000,WGS84,1.3833,1.2816,2.8417,"",0.000,0.000,30,21,21,21,00,06,35,33*35014e63
#BESTXYZA,USB3,0,57.5,FINESTEERING,2354,599455.200,02000000,44cf,17399;SOL_COMPUTED,SINGLE,-1641750.1235,-3664950.4848,4939939.4164,1.7212,2.0916,2.0722,SOL_COMPUTED,DOPPLER_VELOCITY,0.5975,1.0475,0.6688,0.0389,0.0375,0.0492,"",0.000,0.000,0.000,30,21,21,21,0,06,35,33*0006f1e6
#BESTVELA,USB3,0,57.5,FINESTEERING,2354,599455.200,02000000,10a2,17399;SOL_COMPUTED,DOPPLER_VELOCITY,0.000,0.000,1.3590,4.941185,-0.2337,0*a353cda9
#BESTPOSA,USB3,0,57.5,FINESTEERING,2354,599455.250,02000000,cdba,17399;SOL_COMPUTED,SINGLE,51.07920316364,-114.13045634039,1114.8480,-16.6000,WGS84,1.3831,1.2816,2.8416,"",0.000,0.000,30,21,21,21,00,06,35,33*4e7dfed0
#BESTXYZA,USB3,0,57.5,FINESTEERING,2354,599455.250,02000000,44cf,17399;SOL_COMPUTED,SINGLE,-1641750.0858,-3664950.4384,4939939.4545,1.7215,2.0916,2.0717,SOL_COMPUTED,DOPPLER_VELOCITY,0.6511,0.9061,0.7711,0.0389,0.0375,0.0492,"",0.000,0.000,0.000,30,21,21,21,0,06,35,33*133f86da
#BESTVELA,USB3,0,57.5,FINESTEERING,2354,599455.250,02000000,10a2,17399;SOL_COMPUTED,DOPPLER_VELOCITY,0.000,0.000,1.3535,9.518311,-0.0868,0*12f87519
#BESTPOSA,USB3,0,57.5,FINESTEERING,2354,599455.300,02000000,cdba,17399;SOL_COMPUTED,SINGLE,51.07920379533,-114.13045608592,1114.8567,-16.6000,WGS84,1.3832,1.2817,2.8418,"",0.000,0.000,30,21,21,21,00,06,35,33*8ccfb0b9
#BESTXYZA,USB3,0,57.5,FINESTEERING,2354,599455.300,02000000,44cf,17399;SOL_COMPUTED,SINGLE,-1641750.0494,-3664950.4008,4939939.5054,1.7216,2.0916,2.0719,SOL_COMPUTED,DOPPLER_VELOCITY,0.6800,0.7932,0.9121,0.0389,0.0375,0.0492,"",0.000,0.000,0.000,30,21,21,21,0,06,35,33*0eeb830f
#BESTVELA,USB3,0,57.5,FINESTEERING,2354,599455.300,02000000,10a2,17399;SOL_COMPUTED,DOPPLER_VELOCITY,0.000,0.000,1.3846,12.356545,0.0802,0*8206295c
#BESTPOSA,USB3,0,57.5,FINESTEERING,2354,599455.350,02000000,cdba,17399;SOL_COMPUTED,SINGLE,51.07920442015,-114.13045592589,1114.8592,-16.6000,WGS84,1.3832,1.2817,2.8418,"",0.000,0.000,30,21,21,21,00,06,35,33*c605aaba
#BESTXYZA,USB3,0,57.5,FINESTEERING,2354,599455.350,02000000,44cf,17399;SOL_COMPUTED,SINGLE,-1641750.0177,-3664950.3574,4939939.5510,1.7216,2.0917,2.0719,SOL_COMPUTED,DOPPLER_VELOCITY,0.6397,0.7269,1.0238,0.0389,0.0375,0.0492,"",0.000,0.000,0.000,30,21,21,21,0,06,35,33*3eb65794
#BESTVELA,USB3,0,57.5,FINESTEERING,2354,599455.350,02000000,10a2,17399;SOL_COMPUTED,DOPPLER_VELOCITY,0.000,0.000,1.3926,11.878290,0.2155,0*0760d13d
#BESTPOSA,USB3,0,57.5,FINESTEERING,2354,599455.400,02000000,cdba,17399;SOL_COMPUTED,SINGLE,51.07920504956,-114.13045579439,1114.8590,-16.6000,WGS84,1.3828,1.2813,2.8410,"",0.000,0.000,30,21,21,21,00,06,35,33*30314c5d
#BESTXYZA,USB3,0,57.5,FINESTEERING,2354,599455.400,02000000,44cf,17399;SOL_COMPUTED,SINGLE,-1641749.9870,-3664950.3113,4939939.5948,1.7214,2.0916,2.0705,SOL_COMPUTED,DOPPLER_VELOCITY,0.5797,0.7765,1.0183,0.0389,0.0375,0.0492,"",0.000,0.000,0.000,30,21,21,21,0,06,35,33*a0efbb61
#BESTVELA,USB3,0,57.5,FINESTEERING,2354,599455.400,02000000,10a2,17399;SOL_COMPUTED,DOPPLER_VELOCITY,0.000,0.000,1.3917,8.747703,0.1982,0*96379769
#BESTPOSA,USB3,0,57.5,FINESTEERING,2354,599455.450,02000000,cdba,17399;SOL_COMPUTED,SINGLE,51.07920567741,-114.13045578011,1114.8743,-16.6000,WGS84,1.3829,1.2812,2.8411,"",0.000,0.000,30,21,21,21,00,06,35,33*d39b02de
#BESTXYZA,USB3,0,57.5,FINESTEERING,2354,599455.450,02000000,44cf,17399;SOL_COMPUTED,SINGLE,-1641749.9678,-3664950.2709,4939939.6507,1.7209,2.0915,2.0713,SOL_COMPUTED,DOPPLER_VELOCITY,0.4947,0.8214,1.0166,0.0389,0.0375,0.0492,"",0.000,0.000,0.000,30,21,21,21,0,06,35,33*d38d2b57
#BESTVELA,USB3,0,57.5,FINESTEERING,2354,599455.450,02000000,10a2,17399;SOL_COMPUTED,DOPPLER_VELOCITY,0.000,0.000,1.3841,4.793037,0.1929,0*f52540ff
#BESTPOSA,USB3,0,57.5,FINESTEERING,2354,599455.500,02000000,cdba,17399;SOL_COMPUTED,SINGLE,51.07920631681,-114.13045580447,1114.8776,-16.6000,WGS84,1.3832,1.2814,2.8416,"",0.000,0.000,30,21,21,21,00,06,35,33*ba339792
#BESTXYZA,USB3,0,57.5,FINESTEERING,2354,599455.500,02000000,44cf,17399;SOL_COMPUTED,SINGLE,-1641749.9475,-3664950.2216,4939939.6979,1.7209,2.0917,2.0720,SOL_COMPUTED,DOPPLER_VELOCITY,0.4394,0.9564,0.9541,0.0389,0.0375,0.0492,"",0.000,0.000,0.000,30,21,21,21,0,06,35,33*5b9c5e95
#BESTVELA,USB3,0,57.5,FINESTEERING,2354,599455.500,02000000,10a2,17399;SOL_COMPUTED,DOPPLER_VELOCITY,0.000,0.000,1.4183,0.406314,0.0811,0*bebef04f
#BESTPOSA,USB3,0,57.5,FINESTEERING,2354,599455.550,02000000,cdba,17399;SOL_COMPUTED,SINGLE,51.07920695245,-114.13045587241,1114.8687,-16.6000,WGS84,1.3831,1.2814,2.8415,"",0.000,0.000,30,21,21,21,00,06,35,33*ce46bb8f
#BESTXYZA,USB3,0,57.5,FINESTEERING,2354,599455.550,02000000,44cf,17399;SOL_COMPUTED,SINGLE,-1641749.9271,-3664950.1643,4939939.7354,1.7211,2.0917,2.0717,SOL_COMPUTED,DOPPLER_VELOCITY,0.4155,1.1154,0.8164,0.0389,0.0375,0.0492,"",0.000,0.000,0.000,30,21,21,21,0,06,35,33*dc5e820f
#BESTVELA,USB3,0,57.5,FINESTEERING,2354,599455.550,02000000,10a2,17399;SOL_COMPUTED,DOPPLER_VELOCITY,0.000,0.000,1.4391,356.939506,-0.1110,0*bbb0d0a5
#BESTPOSA,USB3,0,57.5,FINESTEERING,2354,599455.600,02000000,cdba,17399;SOL_COMPUTED,SINGLE,51.07920756159,-114.13045606331,1114.8501,-16.6000,WGS84,1.3833,1.2816,2.8419,"",0.000,0.000,30,21,21,21,00,06,35,33*65b59515
#BESTXYZA,USB3,0,57.5,FINESTEERING,2354,599455.600,02000000,44cf,17399;SOL_COMPUTED,SINGLE,-1641749.9130,-3664950.1001,4939939.7636,1.7211,2.0918,2.0723,SOL_COMPUTED,DOPPLER_VELOCITY,0.3964,1.2632,0.6789,0.0389,0.0375,0.0491,"",0.000,0.000,0.000,30,21,21,21,0,06,35,33*2589dbee
#BESTVELA,USB3,0,57.5,FINESTEERING,2354,599455.600,02000000,10a2,17399;SOL_COMPUTED,DOPPLER_VELOCITY,0.000,0.000,1.4577,353.908338,-0.2978,0*4636933f
#BESTPOSA,USB3,0,57.5,FINESTEERING,2354,599455.650,02000000,cdba,17399;SOL_COMPUTED,SINGLE,51.07920822466,-114.13045616690,1114.8436,-16.6000,WGS84,1.3836,1.2818,2.8424,"",0.000,0.000,30,21,21,21,00,06,35,33*d3a121cf
#BESTXYZA,USB3,0,57.5,FINESTEERING,2354,599455.650,02000000,44cf,17399;SOL_COMPUTED,SINGLE,-1641749.8945,-3664950.0410,4939939.8048,1.7212,2.0919,2.0732,SOL_COMPUTED,DOPPLER_VELOCITY,0.3739,1.3172,0.6310,0.0389,0.0375,0.0492,"",0.000,0.000,0.000,30,21,21,21,0,06,35,33*48786a93
#BESTVELA,USB3,0,57.5,FINESTEERING,2354,599455.650,02000000,10a2,17399;SOL_COMPUTED,DOPPLER_VELOCITY,0.000,0.000,1.4639,352.254339,-0.3603,0*304fb6e7
#BESTPOSA,USB3,0,57.5,FINESTEERING,2354,599455.700,02000000,cdba,17399;SOL_COMPUTED,SINGLE,51.07920894382,-114.13045625853,1114.8416,-16.6000,WGS84,1.3833,1.2816,2.8420,"",0.000,0.000,30,21,21,21,00,06,35,33*18780035
#BESTXYZA,USB3,0,57.5,FINESTEERING,2354,599455.700,02000000,44cf,17399;SOL_COMPUTED,SINGLE,-1641749.8744,-3664949.9804,4939939.8535,1.7213,2.0917,2.0724,SOL_COMPUTED,DOPPLER_VELOCITY,0.3584,1.2996,0.6748,0.0389,0.0375,0.0491,"",0.000,0.000,0.000,30,21,21,21,0,06,35,33*05212ea5
#BESTVELA,USB3,0,57.5,FINESTEERING,2354,599455.700,02000000,10a2,17399;SOL_COMPUTED,DOPPLER_VELOCITY,0.000,0.000,1.4749,352.043454,-0.3121,0*df8e8483
#BESTPOSA,USB3,0,57.5,FINESTEERING,2354,599455.750,02000000,cdba,17399;SOL_COMPUTED,SINGLE,51.07920959657,-114.13045641611,1114.8423,-16.6000,WGS84,1.3830,1.2815,2.8417,"",0.000,0.000,30,21,21,21,00,06,35,33*d0f76aa2
#BESTXYZA,USB3,0,57.5,FINESTEERING,2354,599455.750,02000000,44cf,17399;SOL_COMPUTED,SINGLE,-1641749.8615,-3664949.9247,4939939.8997,1.7215,2.0916,2.0716,SOL_COMPUTED,DOPPLER_VELOCITY,0.3024,1.2347,0.7716,0.0398,0.0380,0.0500,"",0.000,0.000,0.000,30,21,21,21,0,06,35,33*05048cff
#BESTVELA,USB3,0,57.5,FINESTEERING,2354,599455.750,02000000,10a2,17399;SOL_COMPUTED,DOPPLER_VELOCITY,0.000,0.000,1.4755,351.080534,-0.1853,0*ce5f7637
#BESTPOSA,USB3,0,57.5,FINESTEERING,2354,599455.800,02000000,cdba,17399;SOL_COMPUTED,SINGLE,51.07921029502,-114.13045644960,1114.8704,-16.6000,WGS84,1.3827,1.2813,2.8413,"",0.000,0.000,30,21,21,21,00,06,35,33*85ee6dc0
#BESTXYZA,USB3,0,57.5,FINESTEERING,2354,599455.800,02000000,44cf,17399;SOL_COMPUTED,SINGLE,-1641749.8462,-3664949.8847,4939939.9704,1.7215,2.0916,2.0707,SOL_COMPUTED,DOPPLER_VELOCITY,0.2545,1.1469,0.9290,0.0389,0.0375,0.0492,"",0.000,0.000,0.000,30,21,21,21,0,06,35,33*1240a146
#BESTVELA,USB3,0,57.5,FINESTEERING,2354,599455.800,02000000,10a2,17399;SOL_COMPUTED,DOPPLER_VELOCITY,0.000,0.000,1.4977,350.908818,-0.0002,0*10e73389
#BESTPOSA,USB3,0,57.5,FINESTEERING,2354,599455.850,02000000,cdba,17399;SOL_COMPUTED,SINGLE,51.07921094323,-114.13045670458,1114.8754,-16.6000,WGS84,1.3827,1.2813,2.8412,"",0.000,0.000,30,21,21,21,00,06,35,33*515b667b
#BESTXYZA,USB3,0,57.5,FINESTEERING,2354,599455.850,02000000,44cf,17399;SOL_COMPUTED,SINGLE,-1641749.8408,-3664949.8291,4939940.0196,1.7217,2.0917,2.0704,SOL_COMPUTED,DOPPLER_VELOCITY,0.2175,1.0782,1.0728,0.0389,0.0375,0.0491,"",0.000,0.000,0.000,30,21,21,21,0,06,35,33*db407ae4
#BESTVELA,USB3,0,57.5,FINESTEERING,2354,599455.850,02000000,10a2,17399;SOL_COMPUTED,DOPPLER_VELOCITY,0.000,0.000,1.5281,350.877189,0.1607,0*0db920c5
#BESTPOSA,USB3,0,57.5,FINESTEERING,2354,599455.900,02000000,cdba,17399;SOL_COMPUTED,SINGLE,51.07921158185,-114.13045689736,1114.9001,-16.6000,WGS84,1.3829,1.2817,2.8417,"",0.000,0.000,30,21,21,21,00,06,35,33*71a4a311
#BESTXYZA,USB3,0,57.5,FINESTEERING,2354,599455.900,02000000,44cf,17399;SOL_COMPUTED,SINGLE,-1641749.8369,-3664949.7872,4939940.0835,1.7222,2.0918,2.0710,SOL_COMPUTED,DOPPLER_VELOCITY,0.1721,0.9922,1.1911,0.0389,0.0375,0.0491,"",0.000,0.000,0.000,30,21,21,21,0,06,35,33*9b6d9d27
#BESTVELA,USB3,0,57.5,FINESTEERING,2354,599455.900,02000000,10a2,17399;SOL_COMPUTED,DOPPLER_VELOCITY,0.000,0.000,1.5279,350.635762,0.3136,0*aea23444
#BESTPOSA,USB3,0,57.5,FINESTEERING,2354,599455.950,02000000,cdba,17399;SOL_COMPUTED,SINGLE,51.07921216740,-114.13045729080,1114.9428,-16.6000,WGS84,1.3798,1.2794,2.8348,"",0.000,0.000,31,22,22,21,00,06,35,33*81451333
#BESTXYZA,USB3,0,57.5,FINESTEERING,2354,599455.950,02000000,44cf,17399;SOL_COMPUTED,SINGLE,-1641749.8523,-3664949.7542,4939940.1577,1.7166,2.0871,2.0673,SOL_COMPUTED,DOPPLER_VELOCITY,0.0893,0.9797,1.2484,0.0418,0.0379,0.0500,"",0.000,0.000,0.000,31,22,22,21,0,06,35,33*820dd937
#BESTVELA,USB3,0,57.5,FINESTEERING,2354,599455.950,02000000,10a2,17399;SOL_COMPUTED,DOPPLER_VELOCITY,0.000,0.000,1.5417,348.057293,0.3866,0*f8f970a5
#BESTPOSA,USB3,0,57.5,FINESTEERING,2354,599456.000,02000000,cdba,17399;SOL_COMPUTED,SINGLE,51.07921292212,-114.13045750570,1114.9108,-16.6000,WGS84,1.3827,1.2821,2.8420,"",0.000,0.000,30,21,21,21,00,06,35,33*1b655928
#BESTXYZA,USB3,0,57.5,FINESTEERING,2354,599456.000,02000000,44cf,17399;SOL_COMPUTED,SINGLE,-1641749.8311,-3664949.6701,4939940.1855,1.7234,2.0920,2.0703,SOL_COMPUTED,DOPPLER_VELOCITY,0.0554,1.0540,1.1333,0.0393,0.0388,0.0502,"",0.000,0.000,0.000,30,21,21,21,0,06,35,33*686c0c45
#BESTVELA,USB3,0,57.5,FINESTEERING,2354,599456.000,02000000,10a2,17399;SOL_COMPUTED,DOPPLER_VELOCITY,0.000,0.000,1.5262,345.567609,0.2632,0*c0187b46
#BESTPOSA,USB3,0,53.0,FINESTEERING,2354,599456.050,02000000,cdba,17399;SOL_COMPUTED,SINGLE,51.07921356038,-114.13045798822,1114.9215,-16.6000,WGS84,1.3825,1.2821,2.8422,"",0.000,0.000,30,21,21,21,00,06,35,33*68d4940f
#BESTXYZA,USB3,0,53.0,FINESTEERING,2354,599456.050,02000000,44cf,17399;SOL_COMPUTED,SINGLE,-1641749.8422,-3664949.6119,4939940.2384,1.7235,2.0919,2.0705,SOL_COMPUTED,DOPPLER_VELOCITY,-0.0095,1.1623,0.9584,0.0392,0.0386,0.0494,"",0.000,0.000,0.000,30,21,21,21,0,06,35,33*9165f72e
#BESTVELA,USB3,0,53.0,FINESTEERING,2354,599456.050,02000000,10a2,17399;SOL_COMPUTED,DOPPLER_VELOCITY,0.000,0.000,1.5043,341.239105,0.0816,0*5219e160
#BESTPOSA,USB3,0,53.0,FINESTEERING,2354,599456.100,02000000,cdba,17399;SOL_COMPUTED,SINGLE,51.07921415092,-114.13045841551,1114.9126,-16.6000,WGS84,1.3823,1.2821,2.8420,"",0.000,0.000,30,21,21,21,00,06,35,33*ee86b190
#BESTXYZA,USB3,0,53.0,FINESTEERING,2354,599456.100,02000000,44cf,17399;SOL_COMPUTED,SINGLE,-1641749.8463,-3664949.5479,4939940.2728,1.7240,2.0920,2.0696,SOL_COMPUTED,DOPPLER_VELOCITY,-0.0237,1.3028,0.7187,0.0389,0.0375,0.0491,"",0.000,0.000,0.000,30,21,21,21,0,06,35,33*6a05beaf
#BESTVELA,USB3,0,53.0,FINESTEERING,2354,599456.100,02000000,10a2,17399;SOL_COMPUTED,DOPPLER_VELOCITY,0.000,0.000,1.4770,337.959505,-0.1817,0*0fc2178a
#BESTPOSA,USB3,0,53.0,FINESTEERING,2354,599456.150,02000000,cdba,17399;SOL_COMPUTED,SINGLE,51.07921476362,-114.13045892481,1114.8985,-16.6000,WGS84,1.3823,1.2823,2.8422,"",0.000,0.000,30,21,21,21,00,06,35,33*5ab0b856
#BESTXYZA,USB3,0,53.0,FINESTEERING,2354,599456.150,02000000,44cf,17399;SOL_COMPUTED,SINGLE,-1641749.8536,-3664949.4768,4939940.3046,1.7244,2.0920,2.0695,SOL_COMPUTED,DOPPLER_VELOCITY,-0.0540,1.3880,0.5631,0.0389,0.0375,0.0491,"",0.000,0.000,0.000,30,21,21,21,0,06,35,33*a4142b8c
#BESTVELA,USB3,0,53.0,FINESTEERING,2354,599456.150,02000000,10a2,17399;SOL_COMPUTED,DOPPLER_VELOCITY,0.000,0.000,1.4589,334.992055,-0.3439,0*1388cfdb
#BESTPOSA,USB3,0,53.0,FINESTEERING,2354,599456.200,02000000,cdba,17399;SOL_COMPUTED,SINGLE,51.07921541072,-114.13045927000,1114.8854,-16.6000,WGS84,1.3826,1.2825,2.8428,"",0.000,0.000,30,21,21,21,00,06,35,33*848a2f9e
#BESTXYZA,USB3,0,53.0,FINESTEERING,2354,599456.200,02000000,44cf,17399;SOL_COMPUTED,SINGLE,-1641749.8494,-3664949.4083,4939940.3397,1.7248,2.0922,2.0703,SOL_COMPUTED,DOPPLER_VELOCITY,-0.0520,1.4371,0.5150,0.0389,0.0375,0.0491,"",0.000,0.000,0.000,30,21,21,21,0,06,35,33*48b52899
#BESTVELA,USB3,0,53.0,FINESTEERING,2354,599456.200,02000000,10a2,17399;SOL_COMPUTED,DOPPLER_VELOCITY,0.000,0.000,1.4715,334.436367,-0.4100,0*3beb02fa
#BESTPOSA,USB3,0,53.0,FINESTEERING,2354,599456.250,02000000,cdba,17399;SOL_COMPUTED,SINGLE,51.07921604845,-114.13045965088,1114.8983,-16.6000,WGS84,1.3825,1.2827,2.8430,"",0.000,0.000,30,21,21,21,00,06,35,33*c02e0686
#BESTXYZA,USB3,0,53.0,FINESTEERING,2354,599456.250,02000000,44cf,17399;SOL_COMPUTED,SINGLE,-1641749.8545,-3664949.3544,4939940.3943,1.7254,2.0922,2.0699,SOL_COMPUTED,DOPPLER_VELOCITY,-0.0805,1.3553,0.6040,0.0389,0.0375,0.0491,"",0.000,0.000,0.000,30,21,21,21,0,06,35,33*0c95b0f8
#BESTVELA,USB3,0,53.0,FINESTEERING,2354,599456.250,02000000,10a2,17399;SOL_COMPUTED,DOPPLER_VELOCITY,0.000,0.000,1.4581,334.506863,-0.2865,0*65257060
#BESTPOSA,USB3,0,53.0,FINESTEERING,2354,599456.300,02000000,cdba,17399;SOL_COMPUTED,SINGLE,51.07921662128,-114.13046008576,1114.9088,-16.6000,WGS84,1.3821,1.2824,2.8424,"",0.000,0.000,30,21,21,21,00,06,35,33*805f8026
#BESTXYZA,USB3,0,53.0,FINESTEERING,2354,599456.300,02000000,44cf,17399;SOL_COMPUTED,SINGLE,-1641749.8647,-3664949.3027,4939940.4425,1.7252,2.0920,2.0692,SOL_COMPUTED,DOPPLER_VELOCITY,-0.0829,1.2343,0.7472,0.0389,0.0375,0.0491,"",0.000,0.000,0.000,30,21,21,21,0,06,35,33*d5e2dd10
#BESTVELA,USB3,0,53.0,FINESTEERING,2354,599456.300,02000000,10a2,17399;SOL_COMPUTED,DOPPLER_VELOCITY,0.000,0.000,1.4414,336.261115,-0.1051,0*32050424
#BESTPOSA,USB3,0,53.0,FINESTEERING,2354,599456.350,02000000,cdba,17399;SOL_COMPUTED,SINGLE,51.07921721540,-114.13046057498,1114.9292,-16.6000,WGS84,1.3821,1.2822,2.8424,"",0.000,0.000,30,21,21,21,00,06,35,33*5147185d
#BESTVELA,USB3,0,53.0,FINESTEERING,2354,599456.350,02000000,10a2,17399;SOL_COMPUTED,DOPPLER_VELOCITY,0.000,0.000,1.4413,338.697811,0.1443,0*e087c3e0
#BESTXYZA,USB3,0,53.0,FINESTEERING,2354,599456.350,02000000,44cf,17399;SOL_COMPUTED,SINGLE,-1641749.8802,-3664949.2534,4939940.4999,1.7250,2.0919,2.0693,SOL_COMPUTED,DOPPLER_VELOCITY,-0.0878,1.0847,0.9558,0.0418,0.0380,0.0500,"",0.000,0.000,0.000,30,21,21,21,0,06,35,33*e8f7c7a7
#BESTVELA,USB3,0,53.0,FINESTEERING,2354,599456.400,02000000,10a2,17399;SOL_COMPUTED,DOPPLER_VELOCITY,0.000,0.000,1.4264,340.523231,0.2565,0*3802e91a
#BESTPOSA,USB3,0,53.0,FINESTEERING,2354,599456.400,02000000,cdba,17399;SOL_COMPUTED,SINGLE,51.07921785983,-114.13046086477,1114.9482,-16.6000,WGS84,1.3820,1.2822,2.8423,"",0.000,0.000,30,21,21,21,00,06,35,33*ac3c157a
#BESTXYZA,USB3,0,53.0,FINESTEERING,2354,599456.400,02000000,44cf,17399;SOL_COMPUTED,SINGLE,-1641749.8808,-3664949.2051,4939940.5597,1.7251,2.0919,2.0689,SOL_COMPUTED,DOPPLER_VELOCITY,-0.0722,1.0022,1.0444,0.0392,0.0386,0.0494,"",0.000,0.000,0.000,30,21,21,21,0,06,35,33*0532f54a
#BESTPOSA,USB3,0,53.0,FINESTEERING,2354,599456.450,02000000,cdba,17399;SOL_COMPUTED,SINGLE,51.07921850121,-114.13046106347,1114.9655,-16.6000,WGS84,1.3822,1.2827,2.8429,"",0.000,0.000,30,21,21,21,00,06,35,33*998a2428
#BESTXYZA,USB3,0,53.0,FINESTEERING,2354,599456.450,02000000,44cf,17399;SOL_COMPUTED,SINGLE,-1641749.8753,-3664949.1587,4939940.6180,1.7262,2.0923,2.0690,SOL_COMPUTED,DOPPLER_VELOCITY,-0.0426,0.9511,1.0787,0.0389,0.0375,0.0491,"",0.000,0.000,0.000,30,21,21,21,0,06,35,33*a4003091
#BESTVELA,USB3,0,53.0,FINESTEERING,2354,599456.450,02000000,10a2,17399;SOL_COMPUTED,DOPPLER_VELOCITY,0.000,0.000,1.4061,342.292952,0.3049,0*2045b167
#BESTPOSA,USB3,0,53.0,FINESTEERING,2354,599456.500,02000000,cdba,17399;SOL_COMPUTED,SINGLE,51.07921909463,-114.13046147181,1114.9858,-16.6000,WGS84,1.3821,1.2827,2.8428,"",0.000,0.000,30,21,21,21,00,06,35,33*33564e3e
#BESTXYZA,USB3,0,53.0,FINESTEERING,2354,599456.500,02000000,44cf,17399;SOL_COMPUTED,SINGLE,-1641749.8856,-3664949.1118,4939940.6753,1.7263,2.0923,2.0687,SOL_COMPUTED,DOPPLER_VELOCITY,0.0002,0.9958,1.0758,0.0389,0.0376,0.0491,"",0.000,0.000,0.000,30,21,21,21,0,06,35,33*9e1dd2b4
#BESTVELA,USB3,0,53.0,FINESTEERING,2354,599456.500,02000000,10a2,17399;SOL_COMPUTED,DOPPLER_VELOCITY,0.000,0.000,1.4416,343.603140,0.2660,0*174a664a
#BESTPOSA,USB3,0,53.0,FINESTEERING,2354,599456.550,02000000,cdba,17399;SOL_COMPUTED,SINGLE,51.07921976499,-114.13046177411,1114.9910,-16.6000,WGS84,1.3821,1.2825,2.8425,"",0.000,0.000,30,21,21,21,00,06,35,33*a2119a59
#BESTXYZA,USB3,0,53.0,FINESTEERING,2354,599456.550,02000000,44cf,17399;SOL_COMPUTED,SINGLE,-1641749.8826,-3664949.0531,4939940.7262,1.7256,2.0922,2.0687,SOL_COMPUTED,DOPPLER_VELOCITY,0.0996,1.1074,0.9648,0.0392,0.0386,0.0494,"",0.000,0.000,0.000,30,21,21,21,0,06,35,33*f7fe96a9
#BESTVELA,USB3,0,53.0,FINESTEERING,2354,599456.550,02000000,10a2,17399;SOL_COMPUTED,DOPPLER_VELOCITY,0.000,0.000,1.4693,345.742764,0.0901,0*361c58e2
#BESTPOSA,USB3,0,53.0,FINESTEERING,2354,599456.600,02000000,cdba,17399;SOL_COMPUTED,SINGLE,51.07922040209,-114.13046212438,1114.9861,-16.6000,WGS84,1.3820,1.2826,2.8425,"",0.000,0.000,30,21,21,21,00,06,35,33*f676ab8e
#BESTXYZA,USB3,0,53.0,FINESTEERING,2354,599456.600,02000000,44cf,17399;SOL_COMPUTED,SINGLE,-1641749.8812,-3664948.9899,4939940.7669,1.7261,2.0924,2.0681,SOL_COMPUTED,DOPPLER_VELOCITY,0.1519,1.2242,0.8003,0.0392,0.0386,0.0494,"",0.000,0.000,0.000,30,21,21,21,0,06,35,33*8d5483d0
#BESTVELA,USB3,0,53.0,FINESTEERING,2354,599456.600,02000000,10a2,17399;SOL_COMPUTED,DOPPLER_VELOCITY,0.000,0.000,1.4657,345.705333,-0.1183,0*5676a486
#BESTPOSA,USB3,0,53.0,FINESTEERING,2354,599456.650,02000000,cdba,17399;SOL_COMPUTED,SINGLE,51.07922108832,-114.13046225425,1114.9709,-16.6000,WGS84,1.3816,1.2822,2.8418,"",0.000,0.000,30,21,21,21,00,06,35,33*c59fce2a
#BESTXYZA,USB3,0,53.0,FINESTEERING,2354,599456.650,02000000,44cf,17399;SOL_COMPUTED,SINGLE,-1641749.8613,-3664948.9233,4939940.8031,1.7257,2.0922,2.0672,SOL_COMPUTED,DOPPLER_VELOCITY,0.1851,1.3127,0.6729,0.0389,0.0375,0.0491,"",0.000,0.000,0.000,30,21,21,21,0,06,35,33*3b57fd48
#BESTVELA,USB3,0,53.0,FINESTEERING,2354,599456.650,02000000,10a2,17399;SOL_COMPUTED,DOPPLER_VELOCITY,0.000,0.000,1.4607,345.420299,-0.2766,0*a208708c
#BESTVELA,USB3,0,53.0,FINESTEERING,2354,599456.700,02000000,10a2,17399;SOL_COMPUTED,DOPPLER_VELOCITY,0.000,0.000,1.4346,344.222265,-0.3363,0*41d75adb
#BESTPOSA,USB3,0,53.0,FINESTEERING,2354,599456.700,02000000,cdba,17399;SOL_COMPUTED,SINGLE,51.07922178461,-114.13046241191,1114.9532,-16.6000,WGS84,1.3817,1.2822,2.8419,"",0.000,0.000,30,21,21,21,00,06,35,33*61257ad7
#BESTXYZA,USB3,0,53.0,FINESTEERING,2354,599456.700,02000000,44cf,17399;SOL_COMPUTED,SINGLE,-1641749.8422,-3664948.8536,4939940.8380,1.7258,2.0923,2.0672,SOL_COMPUTED,DOPPLER_VELOCITY,0.1695,1.3325,0.6057,0.0389,0.0375,0.0491,"",0.000,0.000,0.000,30,21,21,21,0,06,35,33*947a1b4b
#BESTPOSA,USB3,0,53.0,FINESTEERING,2354,599456.750,02000000,cdba,17399;SOL_COMPUTED,SINGLE,51.07922247295,-114.13046265306,1114.9413,-16.6000,WGS84,1.3815,1.2820,2.8415,"",0.000,0.000,30,21,21,21,00,06,35,33*b93291d7
#BESTXYZA,USB3,0,53.0,FINESTEERING,2354,599456.750,02000000,44cf,17399;SOL_COMPUTED,SINGLE,-1641749.8302,-3664948.7855,4939940.8769,1.7258,2.0923,2.0664,SOL_COMPUTED,DOPPLER_VELOCITY,0.1095,1.2902,0.6699,0.0392,0.0386,0.0494,"",0.000,0.000,0.000,30,21,21,21,0,06,35,33*5cc3ad44
#BESTVELA,USB3,0,53.0,FINESTEERING,2354,599456.750,02000000,10a2,17399;SOL_COMPUTED,DOPPLER_VELOCITY,0.000,0.000,1.4369,342.688968,-0.2467,0*1df43cc5
#BESTPOSA,USB3,0,53.0,FINESTEERING,2354,599456.800,02000000,cdba,17399;SOL_COMPUTED,SINGLE,51.07922310126,-114.13046306913,1114.9125,-16.6000,WGS84,1.3814,1.2821,2.8415,"",0.000,0.000,30,21,21,21,00,06,35,33*22c96e75
#BESTXYZA,USB3,0,53.0,FINESTEERING,2354,599456.800,02000000,44cf,17399;SOL_COMPUTED,SINGLE,-1641749.8272,-3664948.7074,4939940.8984,1.7261,2.0924,2.0661,SOL_COMPUTED,DOPPLER_VELOCITY,0.0308,1.2240,0.7712,0.0392,0.0386,0.0494,"",0.000,0.000,0.000,30,21,21,21,0,06,35,33*932f6dbd
#BESTVELA,USB3,0,53.0,FINESTEERING,2354,599456.800,02000000,10a2,17399;SOL_COMPUTED,DOPPLER_VELOCITY,0.000,0.000,1.4429,340.892153,-0.1096,0*9ba92b5c
#BESTPOSA,USB3,0,53.0,FINESTEERING,2354,599456.850,02000000,cdba,17399;SOL_COMPUTED,SINGLE,51.07922372289,-114.13046324575,1114.9219,-16.6000,WGS84,1.3815,1.2823,2.8419,"",0.000,0.000,30,21,21,21,00,06,35,33*2e3c831e
#BESTXYZA,USB3,0,53.0,FINESTEERING,2354,599456.850,02000000,44cf,17399;SOL_COMPUTED,SINGLE,-1641749.8189,-3664948.6587,4939940.9492,1.7264,2.0925,2.0665,SOL_COMPUTED,DOPPLER_VELOCITY,-0.0649,1.0838,0.9209,0.0392,0.0386,0.0494,"",0.000,0.000,0.000,30,21,21,21,0,06,35,33*bb33f2ba
#BESTVELA,USB3,0,53.0,FINESTEERING,2354,599456.850,02000000,10a2,17399;SOL_COMPUTED,DOPPLER_VELOCITY,0.000,0.000,1.4193,339.273559,0.1118,0*ba26e171
#BESTPOSA,USB3,0,53.0,FINESTEERING,2354,599456.900,02000000,cdba,17399;SOL_COMPUTED,SINGLE,51.07922436622,-114.13046343370,1114.9208,-16.6000,WGS84,1.3816,1.2821,2.8419,"",0.000,0.000,30,21,21,21,00,06,35,33*c4a3cfd2
#BESTXYZA,USB3,0,53.0,FINESTEERING,2354,599456.900,02000000,44cf,17399;SOL_COMPUTED,SINGLE,-1641749.8079,-3664948.6018,4939940.9933,1.7259,2.0924,2.0669,SOL_COMPUTED,DOPPLER_VELOCITY,-0.1083,0.9826,1.0138,0.0392,0.0386,0.0494,"",0.000,0.000,0.000,30,21,21,21,0,06,35,33*759e9a5e
#BESTVELA,USB3,0,53.0,FINESTEERING,2354,599456.900,02000000,10a2,17399;SOL_COMPUTED,DOPPLER_VELOCITY,0.000,0.000,1.3932,338.944847,0.2531,0*2bee94b6
#BESTPOSA,USB3,0,53.0,FINESTEERING,2354,599456.950,02000000,cdba,17399;SOL_COMPUTED,SINGLE,51.07922477933,-114.13046405381,1114.9802,-16.6000,WGS84,1.3785,1.2794,2.8345,"",0.000,0.000,31,22,22,21,00,06,35,33*650cea58
#BESTXYZA,USB3,0,53.0,FINESTEERING,2354,599456.950,02000000,44cf,17399;SOL_COMPUTED,SINGLE,-1641749.8482,-3664948.5854,4939941.0683,1.7192,2.0874,2.0637,SOL_COMPUTED,DOPPLER_VELOCITY,-0.2360,0.9033,1.0628,0.0389,0.0376,0.0491,"",0.000,0.000,0.000,31,22,22,21,0,06,35,33*315fbd72
#BESTVELA,USB3,0,53.0,FINESTEERING,2354,599456.950,02000000,10a2,17399;SOL_COMPUTED,DOPPLER_VELOCITY,0.000,0.000,1.3655,334.650033,0.3696,0*6dd2e629
#BESTPOSA,USB3,0,53.0,FINESTEERING,2354,599457.000,02000000,cdba,17399;SOL_COMPUTED,SINGLE,51.07922554326,-114.13046412486,1114.9295,-16.6000,WGS84,1.3810,1.2814,2.8405,"",0.000,0.000,30,21,21,21,00,06,35,33*67cc21e6
#BESTXYZA,USB3,0,53.0,FINESTEERING,2354,599457.000,02000000,44cf,17399;SOL_COMPUTED,SINGLE,-1641749.8127,-3664948.4940,4939941.0823,1.7250,2.0918,2.0655,SOL_COMPUTED,DOPPLER_VELOCITY,-0.2827,0.9178,1.0184,0.0389,0.0376,0.0491,"",0.000,0.000,0.000,30,21,21,21,0,06,35,33*6a4fc654
#BESTVELA,USB3,0,53.0,FINESTEERING,2354,599457.000,02000000,10a2,17399;SOL_COMPUTED,DOPPLER_VELOCITY,0.000,0.000,1.3581,332.211809,0.3387,0*680b199d
#BESTPOSA,USB3,0,53.0,FINESTEERING,2354,599457.050,02000000,cdba,17399;SOL_COMPUTED,SINGLE,51.07922607289,-114.13046447103,1114.9442,-16.6000,WGS84,1.3810,1.2813,2.8405,"",0.000,0.000,30,21,21,21,00,06,35,33*711a50b3
#BESTXYZA,USB3,0,53.0,FINESTEERING,2354,599457.050,02000000,44cf,17399;SOL_COMPUTED,SINGLE,-1641749.8198,-3664948.4507,4939941.1308,1.7249,2.0918,2.0655,SOL_COMPUTED,DOPPLER_VELOCITY,-0.2846,0.9900,0.9072,0.0392,0.0386,0.0494,"",0.000,0.000,0.000,30,21,21,21,0,06,35,33*30e3663b
#BESTVELA,USB3,0,53.0,FINESTEERING,2354,599457.050,02000000,10a2,17399;SOL_COMPUTED,DOPPLER_VELOCITY,0.000,0.000,1.3562,330.664043,0.2113,0*e3b130df
#BESTPOSA,USB3,0,54.0,FINESTEERING,2354,599457.100,02000000,cdba,17399;SOL_COMPUTED,SINGLE,51.07922664742,-114.13046494501,1114.9362,-16.6000,WGS84,1.3810,1.2816,2.8408,"",0.000,0.000,30,21,21,21,00,06,35,33*4c1c4069
#BESTXYZA,USB3,0,54.0,FINESTEERING,2354,599457.100,02000000,44cf,17399;SOL_COMPUTED,SINGLE,-1641749.8278,-3664948.3871,4939941.1647,1.7256,2.0920,2.0654,SOL_COMPUTED,DOPPLER_VELOCITY,-0.2791,1.1237,0.7512,0.0422,0.0391,0.0503,"",0.000,0.000,0.000,30,21,21,21,0,06,35,33*3b21458e
#BESTVELA,USB3,0,54.0,FINESTEERING,2354,599457.100,02000000,10a2,17399;SOL_COMPUTED,DOPPLER_VELOCITY,0.000,0.000,1.3802,328.841094,0.0119,0*f73a90d3
#BESTPOSA,USB3,0,54.0,FINESTEERING,2354,599457.150,02000000,cdba,17399;SOL_COMPUTED,SINGLE,51.07922720306,-114.13046539048,1114.9126,-16.6000,WGS84,1.3807,1.2815,2.8406,"",0.000,0.000,30,21,21,21,00,06,35,33*9c22fdca
#BESTXYZA,USB3,0,54.0,FINESTEERING,2354,599457.150,02000000,44cf,17399;SOL_COMPUTED,SINGLE,-1641749.8305,-3664948.3169,4939941.1852,1.7257,2.0919,2.0648,SOL_COMPUTED,DOPPLER_VELOCITY,-0.3158,1.2162,0.5878,0.0386,0.0364,0.0489,"",0.000,0.000,0.000,30,21,21,21,0,06,35,33*6327e7f0
#BESTVELA,USB3,0,54.0,FINESTEERING,2354,599457.150,02000000,10a2,17399;SOL_COMPUTED,DOPPLER_VELOCITY,0.000,0.000,1.3781,325.254564,-0.1589,0*5450b3e7
#BESTPOSA,USB3,0,54.0,FINESTEERING,2354,599457.200,02000000,cdba,17399;SOL_COMPUTED,SINGLE,51.07922769845,-114.13046586677,1114.8682,-16.6000,WGS84,1.3807,1.2818,2.8408,"",0.000,0.000,30,21,21,21,00,06,35,33*ff0994fd
#BESTVELA,USB3,0,54.0,FINESTEERING,2354,599457.200,02000000,10a2,17399;SOL_COMPUTED,DOPPLER_VELOCITY,0.000,0.000,1.3559,323.527779,-0.3871,0*ca3e2e11
#BESTXYZA,USB3,0,54.0,FINESTEERING,2354,599457.200,02000000,44cf,17399;SOL_COMPUTED,SINGLE,-1641749.8321,-3664948.2387,4939941.1853,1.7263,2.0920,2.0646,SOL_COMPUTED,DOPPLER_VELOCITY,-0.2894,1.3256,0.3839,0.0415,0.0367,0.0497,"",0.000,0.000,0.000,30,21,21,21,0,06,35,33*73add871
#BESTPOSA,USB3,0,54.0,FINESTEERING,2354,599457.250,02000000,cdba,17399;SOL_COMPUTED,SINGLE,51.07922821560,-114.13046627575,1114.8463,-16.6000,WGS84,1.3810,1.2823,2.8416,"",0.000,0.000,30,21,21,21,00,06,35,33*a34a8333
#BESTXYZA,USB3,0,54.0,FINESTEERING,2354,599457.250,02000000,44cf,17399;SOL_COMPUTED,SINGLE,-1641749.8343,-3664948.1735,4939941.2044,1.7272,2.0924,2.0650,SOL_COMPUTED,DOPPLER_VELOCITY,-0.2407,1.3534,0.3696,0.0386,0.0364,0.0489,"",0.000,0.000,0.000,30,21,21,21,0,06,35,33*e833973c
#BESTVELA,USB3,0,54.0,FINESTEERING,2354,599457.250,02000000,10a2,17399;SOL_COMPUTED,DOPPLER_VELOCITY,0.000,0.000,1.3580,325.306481,-0.4266,0*580e05c0
#BESTPOSA,USB3,0,54.0,FINESTEERING,2354,599457.300,02000000,cdba,17399;SOL_COMPUTED,SINGLE,51.07922876149,-114.13046678379,1114.8242,-16.6000,WGS84,1.3809,1.2823,2.8415,"",0.000,0.000,30,21,21,21,00,06,35,33*044efd63
#BESTXYZA,USB3,0,54.0,FINESTEERING,2354,599457.300,02000000,44cf,17399;SOL_COMPUTED,SINGLE,-1641749.8418,-3664948.1031,4939941.2253,1.7275,2.0926,2.0644,SOL_COMPUTED,DOPPLER_VELOCITY,-0.2367,1.3147,0.4668,0.0386,0.0364,0.0489,"",0.000,0.000,0.000,30,21,21,21,0,06,35,33*3d4ef721
#BESTVELA,USB3,0,54.0,FINESTEERING,2354,599457.300,02000000,10a2,17399;SOL_COMPUTED,DOPPLER_VELOCITY,0.000,0.000,1.3761,326.799674,-0.3298,0*48e4905f
#BESTPOSA,USB3,0,54.0,FINESTEERING,2354,599457.350,02000000,cdba,17399;SOL_COMPUTED,SINGLE,51.07922932344,-114.13046716689,1114.8113,-16.6000,WGS84,1.3806,1.2818,2.8408,"",0.000,0.000,30,21,21,21,00,06,35,33*87f9bb5b
#BESTXYZA,USB3,0,54.0,FINESTEERING,2354,599457.350,02000000,44cf,17399;SOL_COMPUTED,SINGLE,-1641749.8431,-3664948.0404,4939941.2546,1.7267,2.0923,2.0640,SOL_COMPUTED,DOPPLER_VELOCITY,-0.1980,1.2318,0.6047,0.0393,0.0364,0.0491,"",0.000,0.000,0.000,30,21,21,21,0,06,35,33*e3559c5d
#BESTVELA,USB3,0,54.0,FINESTEERING,2354,599457.350,02000000,10a2,17399;SOL_COMPUTED,DOPPLER_VELOCITY,0.000,0.000,1.3740,330.133302,-0.1850,0*1fa0bd42
#BESTPOSA,USB3,0,54.0,FINESTEERING,2354,599457.400,02000000,cdba,17399;SOL_COMPUTED,SINGLE,51.07922992885,-114.13046755569,1114.8169,-16.6000,WGS84,1.3806,1.2818,2.8408,"",0.000,0.000,30,21,21,21,00,06,35,33*c151681d
#BESTXYZA,USB3,0,54.0,FINESTEERING,2354,599457.400,02000000,44cf,17399;SOL_COMPUTED,SINGLE,-1641749.8480,-3664947.9847,4939941.3013,1.7268,2.0923,2.0639,SOL_COMPUTED,DOPPLER_VELOCITY,-0.1724,1.1502,0.8824,0.0390,0.0380,0.0494,"",0.000,0.000,0.000,30,21,21,21,0,06,35,33*ee3222d4
#BESTVELA,USB3,0,54.0,FINESTEERING,2354,599457.400,02000000,10a2,17399;SOL_COMPUTED,DOPPLER_VELOCITY,0.000,0.000,1.4582,334.508068,0.0714,0*a2a47dc4
#BESTPOSA,USB3,0,54.0,FINESTEERING,2354,599457.450,02000000,cdba,17399;SOL_COMPUTED,SINGLE,51.07923058631,-114.13046791271,1114.8186,-16.6000,WGS84,1.3807,1.2824,2.8415,"",0.000,0.000,30,21,21,21,00,06,35,33*4dfed34b
#BESTXYZA,USB3,0,54.0,FINESTEERING,2354,599457.450,02000000,44cf,17399;SOL_COMPUTED,SINGLE,-1641749.8480,-3664947.9234,4939941.3485,1.7277,2.0927,2.0641,SOL_COMPUTED,DOPPLER_VELOCITY,-0.1664,1.0891,1.0464,0.0389,0.0373,0.0492,"",0.000,0.000,0.000,30,21,21,21,0,06,35,33*332ddc84
#BESTVELA,USB3,0,54.0,FINESTEERING,2354,599457.450,02000000,10a2,17399;SOL_COMPUTED,DOPPLER_VELOCITY,0.000,0.000,1.5016,336.567292,0.2324,0*ba70805e
#BESTPOSA,USB3,0,54.0,FINESTEERING,2354,599457.500,02000000,cdba,17399;SOL_COMPUTED,SINGLE,51.07923116298,-114.13046834681,1114.8272,-16.6000,WGS84,1.3807,1.2829,2.8419,"",0.000,0.000,30,21,21,21,00,06,35,33*ee41c575
#BESTXYZA,USB3,0,54.0,FINESTEERING,2354,599457.500,02000000,44cf,17399;SOL_COMPUTED,SINGLE,-1641749.8576,-3664947.8704,4939941.3956,1.7288,2.0929,2.0639,SOL_COMPUTED,DOPPLER_VELOCITY,-0.2458,1.0028,1.1085,0.0389,0.0373,0.0492,"",0.000,0.000,0.000,30,21,21,21,0,06,35,33*dd796cef
#BESTVELA,USB3,0,54.0,FINESTEERING,2354,599457.500,02000000,10a2,17399;SOL_COMPUTED,DOPPLER_VELOCITY,0.000,0.000,1.4737,334.509104,0.3506,0*a1e6ac9b
#BESTPOSA,USB3,0,54.0,FINESTEERING,2354,599457.550,02000000,cdba,17399;SOL_COMPUTED,SINGLE,51.07923172094,-114.13046880606,1114.8142,-16.6000,WGS84,1.3807,1.2830,2.8422,"",0.000,0.000,30,21,21,21,00,06,35,33*d27eb3eb
#BESTXYZA,USB3,0,54.0,FINESTEERING,2354,599457.550,02000000,44cf,17399;SOL_COMPUTED,SINGLE,-1641749.8639,-3664947.8057,4939941.4245,1.7290,2.0930,2.0641,SOL_COMPUTED,DOPPLER_VELOCITY,-0.2452,1.0034,0.9832,0.0386,0.0364,0.0489,"",0.000,0.000,0.000,30,21,21,21,0,06,35,33*ae945c4d
#BESTVELA,USB3,0,54.0,FINESTEERING,2354,599457.550,02000000,10a2,17399;SOL_COMPUTED,DOPPLER_VELOCITY,0.000,0.000,1.4035,333.146025,0.2527,0*9ceb50b7
#BESTPOSA,USB3,0,54.0,FINESTEERING,2354,599457.600,02000000,cdba,17399;SOL_COMPUTED,SINGLE,51.07923231970,-114.13046919391,1114.8111,-16.6000,WGS84,1.3811,1.2838,2.8433,"",0.000,0.000,29,21,21,21,00,06,35,33*a2e80256
#BESTXYZA,USB3,0,54.0,FINESTEERING,2354,599457.600,02000000,44cf,17399;SOL_COMPUTED,SINGLE,-1641749.8667,-3664947.7455,4939941.4639,1.7304,2.0934,2.0648,SOL_COMPUTED,DOPPLER_VELOCITY,-0.2797,0.9835,0.9494,0.0386,0.0364,0.0489,"",0.000,0.000,0.000,29,21,21,21,0,06,35,33*9a28962e
#BESTVELA,USB3,0,54.0,FINESTEERING,2354,599457.600,02000000,10a2,17399;SOL_COMPUTED,DOPPLER_VELOCITY,0.000,0.000,1.3733,331.402720,0.2466,0*75586b51
#BESTPOSA,USB3,0,54.0,FINESTEERING,2354,599457.650,02000000,cdba,17399;SOL_COMPUTED,SINGLE,51.07923283644,-114.13046965864,1114.8112,-16.6000,WGS84,1.3811,1.2842,2.8438,"",0.000,0.000,29,21,21,21,00,06,35,33*8e284cc6
#BESTXYZA,USB3,0,54.0,FINESTEERING,2354,599457.650,02000000,44cf,17399;SOL_COMPUTED,SINGLE,-1641749.8781,-3664947.6914,4939941.5001,1.7312,2.0936,2.0648,SOL_COMPUTED,DOPPLER_VELOCITY,-0.2957,1.0239,0.8260,0.0392,0.0383,0.0494,"",0.000,0.000,0.000,29,21,21,21,0,06,35,33*cd28c327
#BESTVELA,USB3,0,54.0,FINESTEERING,2354,599457.650,02000000,10a2,17399;SOL_COMPUTED,DOPPLER_VELOCITY,0.000,0.000,1.3420,329.135092,0.1315,0*dbeb8fe0
#BESTPOSA,USB3,0,54.0,FINESTEERING,2354,599457.700,02000000,cdba,17399;SOL_COMPUTED,SINGLE,51.07923335954,-114.13047012247,1114.7917,-16.6000,WGS84,1.3809,1.2842,2.8436,"",0.000,0.000,29,21,21,21,00,06,35,33*9bd73c5d
#BESTXYZA,USB3,0,54.0,FINESTEERING,2354,599457.700,02000000,44cf,17399;SOL_COMPUTED,SINGLE,-1641749.8843,-3664947.6256,4939941.5215,1.7313,2.0936,2.0644,SOL_COMPUTED,DOPPLER_VELOCITY,-0.2776,1.1113,0.6085,0.0386,0.0364,0.0489,"",0.000,0.000,0.000,29,21,21,21,0,06,35,33*40aabda0
#BESTVELA,USB3,0,54.0,FINESTEERING,2354,599457.700,02000000,10a2,17399;SOL_COMPUTED,DOPPLER_VELOCITY,0.000,0.000,1.2937,326.836910,-0.0924,0*1272810a
#BESTPOSA,USB3,0,54.0,FINESTEERING,2354,599457.750,02000000,cdba,17399;SOL_COMPUTED,SINGLE,51.07923385583,-114.13047062950,1114.7772,-16.6000,WGS84,1.3812,1.2850,2.8447,"",0.000,0.000,29,21,21,21,00,06,35,33*73297849
#BESTXYZA,USB3,0,54.0,FINESTEERING,2354,599457.750,02000000,44cf,17399;SOL_COMPUTED,SINGLE,-1641749.8954,-3664947.5636,4939941.5449,1.7326,2.0940,2.0650,SOL_COMPUTED,DOPPLER_VELOCITY,-0.2660,1.2053,0.5126,0.0387,0.0364,0.0490,"",0.000,0.000,0.000,29,21,21,21,0,06,35,33*e491c96c
#BESTVELA,USB3,0,54.0,FINESTEERING,2354,599457.750,02000000,10a2,17399;SOL_COMPUTED,DOPPLER_VELOCITY,0.000,0.000,1.3176,326.068165,-0.2239,0*7c4dc1d4
#BESTPOSA,USB3,0,54.0,FINESTEERING,2354,599457.800,02000000,cdba,17399;SOL_COMPUTED,SINGLE,51.07923444654,-114.13047102519,1114.7615,-16.6000,WGS84,1.3816,1.2856,2.8458,"",0.000,0.000,29,21,21,21,00,06,35,33*168096e0
#BESTXYZA,USB3,0,54.0,FINESTEERING,2354,599457.800,02000000,44cf,17399;SOL_COMPUTED,SINGLE,-1641749.8958,-3664947.4966,4939941.5740,1.7336,2.0943,2.0661,SOL_COMPUTED,DOPPLER_VELOCITY,-0.1953,1.2524,0.5670,0.0399,0.0375,0.0508,"",0.000,0.000,0.000,29,21,21,21,0,06,35,33*5029ca35
#BESTVELA,USB3,0,54.0,FINESTEERING,2354,599457.800,02000000,10a2,17399;SOL_COMPUTED,DOPPLER_VELOCITY,0.000,0.000,1.3699,329.744066,-0.2268,0*5aabb36f
#BESTPOSA,USB3,0,54.0,FINESTEERING,2354,599457.850,02000000,cdba,17399;SOL_COMPUTED,SINGLE,51.07923482347,-114.13047172447,1114.7810,-16.6000,WGS84,1.3790,1.2841,2.8400,"",0.000,0.000,30,22,22,21,00,06,35,33*14f758f7
#BESTXYZA,USB3,0,54.0,FINESTEERING,2354,599457.850,02000000,44cf,17399;SOL_COMPUTED,SINGLE,-1641749.9322,-3664947.4579,4939941.6155,1.7289,2.0900,2.0637,SOL_COMPUTED,DOPPLER_VELOCITY,-0.2161,1.2263,0.6428,0.0399,0.0376,0.0521,"",0.000,0.000,0.000,30,22,22,21,0,06,35,33*b08de266
#BESTVELA,USB3,0,54.0,FINESTEERING,2354,599457.850,02000000,10a2,17399;SOL_COMPUTED,DOPPLER_VELOCITY,0.000,0.000,1.3936,329.917225,-0.1475,0*f415692a
#BESTPOSA,USB3,0,54.0,FINESTEERING,2354,599457.900,02000000,cdba,17399;SOL_COMPUTED,SINGLE,51.07923534288,-114.13047224502,1114.7849,-16.6000,WGS84,1.3790,1.2843,2.8403,"",0.000,0.000,30,22,22,21,00,06,35,33*3e842367
#BESTXYZA,USB3,0,54.0,FINESTEERING,2354,599457.900,02000000,44cf,17399;SOL_COMPUTED,SINGLE,-1641749.9481,-3664947.4042,4939941.6548,1.7292,2.0901,2.0639,SOL_COMPUTED,DOPPLER_VELOCITY,-0.2607,1.1829,0.6998,0.0396,0.0365,0.0506,"",0.000,0.000,0.000,30,22,22,21,0,06,35,33*9e1de828
#BESTVELA,USB3,0,54.0,FINESTEERING,2354,599457.900,02000000,10a2,17399;SOL_COMPUTED,DOPPLER_VELOCITY,0.000,0.000,1.3973,328.912726,-0.0668,0*50b8f3f8
#BESTPOSA,USB3,0,54.0,FINESTEERING,2354,599457.950,02000000,cdba,17399;SOL_COMPUTED,SINGLE,51.07923605667,-114.13047256126,1114.7584,-16.6000,WGS84,1.3822,1.2877,2.8483,"",0.000,0.000,29,21,21,21,00,06,35,33*f1373ab6
#BESTXYZA,USB3,0,54.0,FINESTEERING,2354,599457.950,02000000,44cf,17399;SOL_COMPUTED,SINGLE,-1641749.9363,-3664947.3235,4939941.6841,1.7373,2.0954,2.0670,SOL_COMPUTED,DOPPLER_VELOCITY,-0.3654,1.0645,0.8667,0.0396,0.0365,0.0506,"",0.000,0.000,0.000,29,21,21,21,0,06,35,33*a6f826a1
#BESTVELA,USB3,0,54.0,FINESTEERING,2354,599457.950,02000000,10a2,17399;SOL_COMPUTED,DOPPLER_VELOCITY,0.000,0.000,1.4117,327.009117,0.1578,0*aa6cc8c8
#BESTPOSA,USB3,0,54.0,FINESTEERING,2354,599458.000,02000000,cdba,17399;SOL_COMPUTED,SINGLE,51.07923639786,-114.13047339310,1114.7992,-16.6000,WGS84,1.3795,1.2854,2.8418,"",0.000,0.000,30,22,22,21,00,06,35,33*9085e433
#BESTXYZA,USB3,0,54.0,FINESTEERING,2354,599458.000,02000000,44cf,17399;SOL_COMPUTED,SINGLE,-1641749.9879,-3664947.2961,4939941.7397,1.7310,2.0907,2.0649,SOL_COMPUTED,DOPPLER_VELOCITY,-0.4184,0.9407,0.9449,0.0399,0.0375,0.0508,"",0.000,0.000,0.000,30,22,22,21,0,06,35,33*5948be2f
#BESTVELA,USB3,0,54.0,FINESTEERING,2354,599458.000,02000000,10a2,17399;SOL_COMPUTED,DOPPLER_VELOCITY,0.000,0.000,1.3641,325.815587,0.3032,0*a41d5706
#BESTPOSA,USB3,0,54.0,FINESTEERING,2354,599458.050,02000000,cdba,17399;SOL_COMPUTED,SINGLE,51.07923357602,-114.13047461696,1115.4423,-16.6000,WGS84,1.3232,1.2838,2.7574,"",0.000,0.000,30,23,23,22,00,06,35,33*7c64a114
#BESTXYZA,USB3,0,54.0,FINESTEERING,2354,599458.050,02000000,44cf,17399;SOL_COMPUTED,SINGLE,-1641750.3312,-3664947.8527,4939942.0428,1.6953,1.9876,2.0439,SOL_COMPUTED,DOPPLER_VELOCITY,-0.4219,0.8101,0.9401,0.0376,0.0356,0.0499,"",0.000,0.000,0.000,30,23,23,22,0,06,35,33*952e396f
#BESTVELA,USB3,0,54.0,FINESTEERING,2354,599458.050,02000000,10a2,17399;SOL_COMPUTED,DOPPLER_VELOCITY,0.000,0.000,1.2558,325.228722,0.3753,0*ab75f053
#BESTPOSA,USB3,0,58.5,FINESTEERING,2354,599458.100,02000000,cdba,17399;SOL_COMPUTED,SINGLE,51.07923408051,-114.13047494741,1115.4329,-16.6000,WGS84,1.3253,1.2858,2.7627,"",0.000,0.000,29,22,22,22,00,06,35,33*dcc1eba7
#BESTXYZA,USB3,0,58.5,FINESTEERING,2354,599458.100,02000000,44cf,17399;SOL_COMPUTED,SINGLE,-1641750.3321,-3664947.7980,4939942.0707,1.7007,1.9914,2.0455,SOL_COMPUTED,DOPPLER_VELOCITY,-0.3705,0.7348,0.8258,0.0387,0.0364,0.0490,"",0.000,0.000,0.000,29,22,22,22,0,06,35,33*b4f38c41
#BESTVELA,USB3,0,58.5,FINESTEERING,2354,599458.100,02000000,10a2,17399;SOL_COMPUTED,DOPPLER_VELOCITY,0.000,0.000,1.1221,325.315897,0.3164,0*84f7971a
#BESTPOSA,USB3,0,58.5,FINESTEERING,2354,599458.150,02000000,cdba,17399;SOL_COMPUTED,SINGLE,51.07923455062,-114.13047535735,1115.4506,-16.6000,WGS84,1.3258,1.2869,2.7641,"",0.000,0.000,29,22,22,22,00,06,35,33*3c69e4f2
#BESTXYZA,USB3,0,58.5,FINESTEERING,2354,599458.150,02000000,44cf,17399;SOL_COMPUTED,SINGLE,-1641750.3462,-3664947.7593,4939942.1174,1.7024,1.9919,2.0465,SOL_COMPUTED,DOPPLER_VELOCITY,-0.3557,0.7077,0.7401,0.0387,0.0363,0.0490,"",0.000,0.000,0.000,29,22,22,22,0,06,35,33*edc99256
#BESTVELA,USB3,0,58.5,FINESTEERING,2354,599458.150,02000000,10a2,17399;SOL_COMPUTED,DOPPLER_VELOCITY,0.000,0.000,1.0520,324.297118,0.2615,0*c53f46c9
#BESTPOSA,USB3,0,58.5,FINESTEERING,2354,599458.200,02000000,cdba,17399;SOL_COMPUTED,SINGLE,51.07923494072,-114.13047596214,1115.4674,-16.6000,WGS84,1.3263,1.2888,2.7662,"",0.000,0.000,29,22,22,22,00,06,35,33*6e7205ac
#BESTXYZA,USB3,0,58.5,FINESTEERING,2354,599458.200,02000000,44cf,17399;SOL_COMPUTED,SINGLE,-1641750.3754,-3664947.7207,4939942.1577,1.7056,1.9927,2.0474,SOL_COMPUTED,DOPPLER_VELOCITY,-0.3960,0.7902,0.5756,0.0396,0.0365,0.0506,"",0.000,0.000,0.000,29,22,22,22,0,06,35,33*914ec6d6
#BESTVELA,USB3,0,58.5,FINESTEERING,2354,599458.200,02000000,10a2,17399;SOL_COMPUTED,DOPPLER_VELOCITY,0.000,0.000,1.0504,319.334058,0.0965,0*e96b0592
#BESTPOSA,USB3,0,58.5,FINESTEERING,2354,599458.250,02000000,cdba,17399;SOL_COMPUTED,SINGLE,51.07923529513,-114.13047651403,1115.4519,-16.6000,WGS84,1.3259,1.2882,2.7654,"",0.000,0.000,29,22,22,22,00,06,35,33*cf9d84e0
#BESTXYZA,USB3,0,58.5,FINESTEERING,2354,599458.250,02000000,44cf,17399;SOL_COMPUTED,SINGLE,-1641750.3942,-3664947.6681,4939942.1705,1.7047,1.9923,2.0467,SOL_COMPUTED,DOPPLER_VELOCITY,-0.3754,0.9069,0.3706,0.0396,0.0365,0.0506,"",0.000,0.000,0.000,29,22,22,22,0,06,35,33*966e8433
#BESTVELA,USB3,0,58.5,FINESTEERING,2354,599458.250,02000000,10a2,17399;SOL_COMPUTED,DOPPLER_VELOCITY,0.000,0.000,1.0404,316.715296,-0.1353,0*1f60dd76
#BESTPOSA,USB3,0,58.5,FINESTEERING,2354,599458.300,02000000,cdba,17399;SOL_COMPUTED,SINGLE,51.07923569999,-114.13047708574,1115.4329,-16.6000,WGS84,1.3257,1.2878,2.7649,"",0.000,0.000,29,22,22,22,00,06,35,33*355e9cab
#BESTXYZA,USB3,0,58.5,FINESTEERING,2354,599458.300,02000000,44cf,17399;SOL_COMPUTED,SINGLE,-1641750.4116,-3664947.6088,4939942.1840,1.7043,1.9922,2.0463,SOL_COMPUTED,DOPPLER_VELOCITY,-0.3961,1.0246,0.3192,0.0427,0.0370,0.0528,"",0.000,0.000,0.000,29,22,22,22,0,06,35,33*d8431fce
#BESTVELA,USB3,0,58.5,FINESTEERING,2354,599458.300,02000000,10a2,17399;SOL_COMPUTED,DOPPLER_VELOCITY,0.000,0.000,1.1190,315.784246,-0.2374,0*2299bf2b
#BESTPOSA,USB3,0,58.5,FINESTEERING,2354,599458.350,02000000,cdba,17399;SOL_COMPUTED,SINGLE,51.07923607397,-114.13047773416,1115.4361,-16.6000,WGS84,1.3261,1.2886,2.7661,"",0.000,0.000,29,22,22,22,00,06,35,33*5b745dfc
#BESTXYZA,USB3,0,58.5,FINESTEERING,2354,599458.350,02000000,44cf,17399;SOL_COMPUTED,SINGLE,-1641750.4406,-3664947.5625,4939942.2126,1.7055,1.9926,2.0471,SOL_COMPUTED,DOPPLER_VELOCITY,-0.3851,1.0754,0.2853,0.0397,0.0365,0.0506,"",0.000,0.000,0.000,29,22,22,22,0,06,35,33*12b57599
#BESTVELA,USB3,0,58.5,FINESTEERING,2354,599458.350,02000000,10a2,17399;SOL_COMPUTED,DOPPLER_VELOCITY,0.000,0.000,1.1396,316.039188,-0.2957,0*af1911d9
#BESTVELA,USB3,0,58.5,FINESTEERING,2354,599458.400,02000000,10a2,17399;SOL_COMPUTED,DOPPLER_VELOCITY,0.000,0.000,1.2003,317.195603,-0.2739,0*e89b4f75
#BESTPOSA,USB3,0,58.5,FINESTEERING,2354,599458.400,02000000,cdba,17399;SOL_COMPUTED,SINGLE,51.07923653130,-114.13047837221,1115.4338,-16.6000,WGS84,1.3257,1.2872,2.7646,"",0.000,0.000,29,22,22,22,00,06,35,33*68ed6f08
#BESTXYZA,USB3,0,58.5,FINESTEERING,2354,599458.400,02000000,44cf,17399;SOL_COMPUTED,SINGLE,-1641750.4646,-3664947.5068,4939942.2427,1.7032,1.9921,2.0466,SOL_COMPUTED,DOPPLER_VELOCITY,-0.3939,1.1158,0.3401,0.0388,0.0364,0.0490,"",0.000,0.000,0.000,29,22,22,22,0,06,35,33*bc8304b9
#BESTVELA,USB3,0,58.5,FINESTEERING,2354,599458.450,02000000,10a2,17399;SOL_COMPUTED,DOPPLER_VELOCITY,0.000,0.000,1.2309,318.234960,-0.0822,0*788d8258
#BESTPOSA,USB3,0,58.5,FINESTEERING,2354,599458.450,02000000,cdba,17399;SOL_COMPUTED,SINGLE,51.07923694420,-114.13047895482,1115.4516,-16.6000,WGS84,1.3252,1.2858,2.7629,"",0.000,0.000,29,22,22,22,00,06,35,33*571b871e
#BESTXYZA,USB3,0,58.5,FINESTEERING,2354,599458.450,02000000,44cf,17399;SOL_COMPUTED,SINGLE,-1641750.4919,-3664947.4677,4939942.2855,1.7010,1.9914,2.0455,SOL_COMPUTED,DOPPLER_VELOCITY,-0.4351,1.0342,0.5128,0.0387,0.0364,0.0490,"",0.000,0.000,0.000,29,22,22,22,0,06,35,33*61bb70cf
#BESTPOSA,USB3,0,58.5,FINESTEERING,2354,599458.500,02000000,cdba,17399;SOL_COMPUTED,SINGLE,51.07923743323,-114.13047950048,1115.4727,-16.6000,WGS84,1.3251,1.2858,2.7627,"",0.000,0.000,29,22,22,22,00,06,35,33*cf33096b
#BESTXYZA,USB3,0,58.5,FINESTEERING,2354,599458.500,02000000,44cf,17399;SOL_COMPUTED,SINGLE,-1641750.5149,-3664947.4255,4939942.3360,1.7011,1.9914,2.0450,SOL_COMPUTED,DOPPLER_VELOCITY,-0.4033,0.9620,0.6876,0.0390,0.0373,0.0492,"",0.000,0.000,0.000,29,22,22,22,0,06,35,33*aeed4909
#BESTVELA,USB3,0,58.5,FINESTEERING,2354,599458.500,02000000,10a2,17399;SOL_COMPUTED,DOPPLER_VELOCITY,0.000,0.000,1.2463,322.346880,0.0870,0*c7b637c6
#BESTPOSA,USB3,0,58.5,FINESTEERING,2354,599458.550,02000000,cdba,17399;SOL_COMPUTED,SINGLE,51.07923792880,-114.13047998960,1115.4895,-16.6000,WGS84,1.3254,1.2865,2.7637,"",0.000,0.000,29,22,22,22,00,06,35,33*797f1c6f
#BESTVELA,USB3,0,58.5,FINESTEERING,2354,599458.550,02000000,10a2,17399;SOL_COMPUTED,DOPPLER_VELOCITY,0.000,0.000,1.2715,324.310067,0.2580,0*8d86c9d8
#BESTXYZA,USB3,0,58.5,FINESTEERING,2354,599458.550,02000000,44cf,17399;SOL_COMPUTED,SINGLE,-1641750.5330,-3664947.3820,4939942.3838,1.7022,1.9918,2.0458,SOL_COMPUTED,DOPPLER_VELOCITY,-0.4148,0.8886,0.8495,0.0387,0.0364,0.0490,"",0.000,0.000,0.000,29,22,22,22,0,06,35,33*e11d8c8b
#BESTPOSA,USB3,0,58.5,FINESTEERING,2354,599458.600,02000000,cdba,17399;SOL_COMPUTED,SINGLE,51.07923847641,-114.13048032290,1115.5246,-16.6000,WGS84,1.3253,1.2857,2.7629,"",0.000,0.000,29,22,22,22,00,06,35,33*edb19847
#BESTXYZA,USB3,0,58.5,FINESTEERING,2354,599458.600,02000000,44cf,17399;SOL_COMPUTED,SINGLE,-1641750.5439,-3664947.3493,4939942.4494,1.7008,1.9914,2.0457,SOL_COMPUTED,DOPPLER_VELOCITY,-0.3667,0.8419,0.8868,0.0387,0.0364,0.0490,"",0.000,0.000,0.000,29,22,22,22,0,06,35,33*75f5860d
#BESTVELA,USB3,0,58.5,FINESTEERING,2354,599458.600,02000000,10a2,17399;SOL_COMPUTED,DOPPLER_VELOCITY,0.000,0.000,1.2405,326.824298,0.3014,0*eadecb25
#BESTPOSA,USB3,0,58.5,FINESTEERING,2354,599458.650,02000000,cdba,17399;SOL_COMPUTED,SINGLE,51.07923914313,-114.13048067594,1115.4890,-16.6000,WGS84,1.3250,1.2852,2.7620,"",0.000,0.000,29,22,22,22,00,06,35,33*15bb1c23
#BESTXYZA,USB3,0,58.5,FINESTEERING,2354,599458.650,02000000,44cf,17399;SOL_COMPUTED,SINGLE,-1641750.5338,-3664947.2661,4939942.4683,1.7000,1.9912,2.0448,SOL_COMPUTED,DOPPLER_VELOCITY,-0.4094,0.8144,0.8985,0.0387,0.0364,0.0490,"",0.000,0.000,0.000,29,22,22,22,0,06,35,33*a8e6c288
#BESTVELA,USB3,0,58.5,FINESTEERING,2354,599458.650,02000000,10a2,17399;SOL_COMPUTED,DOPPLER_VELOCITY,0.000,0.000,1.2347,325.093533,0.3373,0*f4d7db45
#BESTPOSA,USB3,0,58.5,FINESTEERING,2354,599458.700,02000000,cdba,17399;SOL_COMPUTED,SINGLE,51.07923955959,-114.13048130264,1115.5014,-16.6000,WGS84,1.3245,1.2843,2.7607,"",0.000,0.000,29,22,22,22,00,06,35,33*523468b4
#BESTXYZA,USB3,0,58.5,FINESTEERING,2354,599458.700,02000000,44cf,17399;SOL_COMPUTED,SINGLE,-1641750.5623,-3664947.2223,4939942.5071,1.6987,1.9908,2.0436,SOL_COMPUTED,DOPPLER_VELOCITY,-0.3651,0.9099,0.7696,0.0415,0.0368,0.0509,"",0.000,0.000,0.000,29,22,22,22,0,06,35,33*81c6a9a4
#BESTVELA,USB3,0,58.5,FINESTEERING,2354,599458.700,02000000,10a2,17399;SOL_COMPUTED,DOPPLER_VELOCITY,0.000,0.000,1.2346,325.168878,0.1708,0*fb333b2f
#BESTPOSA,USB3,0,58.5,FINESTEERING,2354,599458.750,02000000,cdba,17399;SOL_COMPUTED,SINGLE,51.07924009613,-114.13048183947,1115.5088,-16.6000,WGS84,1.3247,1.2843,2.7609,"",0.000,0.000,29,22,22,22,00,06,35,33*60b6b650
#BESTXYZA,USB3,0,58.5,FINESTEERING,2354,599458.750,02000000,44cf,17399;SOL_COMPUTED,SINGLE,-1641750.5795,-3664947.1688,4939942.5503,1.6985,1.9908,2.0440,SOL_COMPUTED,DOPPLER_VELOCITY,-0.3261,1.0716,0.6271,0.0390,0.0373,0.0492,"",0.000,0.000,0.000,29,22,22,22,0,06,35,33*c988335b
#BESTVELA,USB3,0,58.5,FINESTEERING,2354,599458.750,02000000,10a2,17399;SOL_COMPUTED,DOPPLER_VELOCITY,0.000,0.000,1.2830,325.010185,-0.0427,0*bf6b9368
#BESTPOSA,USB3,0,58.5,FINESTEERING,2354,599458.800,02000000,cdba,17399;SOL_COMPUTED,SINGLE,51.07924062162,-114.13048223559,1115.5091,-16.6000,WGS84,1.3251,1.2849,2.7619,"",0.000,0.000,29,22,22,22,00,06,35,33*67bb9130
#BESTXYZA,USB3,0,58.5,FINESTEERING,2354,599458.800,02000000,44cf,17399;SOL_COMPUTED,SINGLE,-1641750.5864,-3664947.1161,4939942.5873,1.6993,1.9912,2.0452,SOL_COMPUTED,DOPPLER_VELOCITY,-0.2154,1.1954,0.5102,0.0387,0.0363,0.0490,"",0.000,0.000,0.000,29,22,22,22,0,06,35,33*af3cd6aa
#BESTVELA,USB3,0,58.5,FINESTEERING,2354,599458.800,02000000,10a2,17399;SOL_COMPUTED,DOPPLER_VELOCITY,0.000,0.000,1.2966,328.095915,-0.2331,0*36e83049
#BESTPOSA,USB3,0,58.5,FINESTEERING,2354,599458.850,02000000,cdba,17399;SOL_COMPUTED,SINGLE,51.07924119851,-114.13048272018,1115.5066,-16.6000,WGS84,1.3253,1.2859,2.7627,"",0.000,0.000,29,22,22,22,00,06,35,33*204523d7
#BESTXYZA,USB3,0,58.5,FINESTEERING,2354,599458.850,02000000,44cf,17399;SOL_COMPUTED,SINGLE,-1641750.5963,-3664947.0552,4939942.6257,1.7009,1.9917,2.0451,SOL_COMPUTED,DOPPLER_VELOCITY,-0.2018,1.2867,0.4707,0.0415,0.0367,0.0498,"",0.000,0.000,0.000,29,22,22,22,0,06,35,33*7eca6980
#BESTVELA,USB3,0,58.5,FINESTEERING,2354,599458.850,02000000,10a2,17399;SOL_COMPUTED,DOPPLER_VELOCITY,0.000,0.000,1.3474,328.193641,-0.3197,0*cf10fcb3
#BESTPOSA,USB3,0,58.5,FINESTEERING,2354,599458.900,02000000,cdba,17399;SOL_COMPUTED,SINGLE,51.07924170942,-114.13048332285,1115.5089,-16.6000,WGS84,1.3253,1.2860,2.7628,"",0.000,0.000,29,22,22,22,00,06,35,33*5da6f4f7
#BESTXYZA,USB3,0,58.5,FINESTEERING,2354,599458.900,02000000,44cf,17399;SOL_COMPUTED,SINGLE,-1641750.6174,-3664946.9989,4939942.6632,1.7012,1.9918,2.0450,SOL_COMPUTED,DOPPLER_VELOCITY,-0.1740,1.3719,0.5239,0.0387,0.0365,0.0501,"",0.000,0.000,0.000,29,22,22,22,0,06,35,33*1e96e506
#BESTVELA,USB3,0,58.5,FINESTEERING,2354,599458.900,02000000,10a2,17399;SOL_COMPUTED,DOPPLER_VELOCITY,0.000,0.000,1.4405,330.028609,-0.3343,0*a81c9214
#BESTPOSA,USB3,0,58.5,FINESTEERING,2354,599458.950,02000000,cdba,17399;SOL_COMPUTED,SINGLE,51.07924236240,-114.13048382781,1115.5267,-16.6000,WGS84,1.3250,1.2848,2.7618,"",0.000,0.000,29,22,22,22,00,06,35,33*84ea5819
#BESTXYZA,USB3,0,58.5,FINESTEERING,2354,599458.950,02000000,44cf,17399;SOL_COMPUTED,SINGLE,-1641750.6311,-3664946.9430,4939942.7226,1.6990,1.9912,2.0450,SOL_COMPUTED,DOPPLER_VELOCITY,-0.2181,1.3674,0.6617,0.0390,0.0373,0.0492,"",0.000,0.000,0.000,29,22,22,22,0,06,35,33*1476e84d
#BESTVELA,USB3,0,58.5,FINESTEERING,2354,599458.950,02000000,10a2,17399;SOL_COMPUTED,DOPPLER_VELOCITY,0.000,0.000,1.5198,330.079625,-0.2132,0*b9e6af4b
#BESTPOSA,USB3,0,58.5,FINESTEERING,2354,599459.000,02000000,cdba,17399;SOL_COMPUTED,SINGLE,51.07924301992,-114.13048436324,1115.5531,-16.6000,WGS84,1.3250,1.2851,2.7622,"",0.000,0.000,29,22,22,22,00,06,35,33*f059254a
#BESTXYZA,USB3,0,58.5,FINESTEERING,2354,599459.000,02000000,44cf,17399;SOL_COMPUTED,SINGLE,-1641750.6489,-3664946.8909,4939942.7892,1.6997,1.9913,2.0452,SOL_COMPUTED,DOPPLER_VELOCITY,-0.2873,1.3356,0.8302,0.0390,0.0373,0.0492,"",0.000,0.000,0.000,29,22,22,22,0,06,35,33*452018c9
#BESTVELA,USB3,0,58.5,FINESTEERING,2354,599459.000,02000000,10a2,17399;SOL_COMPUTED,DOPPLER_VELOCITY,0.000,0.000,1.5980,329.615734,-0.0460,0*8f56c5e9
#BESTPOSA,USB3,0,55.5,FINESTEERING,2354,599459.050,02000000,cdba,17399;SOL_COMPUTED,SINGLE,51.07924376283,-114.13048473532,1115.5245,-16.6000,WGS84,1.3248,1.2839,2.7555,"",0.000,0.000,29,22,22,22,00,06,35,33*244b329b
#BESTXYZA,USB3,0,55.5,FINESTEERING,2354,599459.050,02000000,44cf,17399;SOL_COMPUTED,SINGLE,-1641750.6390,-3664946.8051,4939942.8189,1.6970,1.9891,2.0396,SOL_COMPUTED,DOPPLER_VELOCITY,-0.3935,1.2550,0.9489,0.0390,0.0373,0.0492,"",0.000,0.000,0.000,29,22,22,22,0,06,35,33*d8c3eee6
#BESTVELA,USB3,0,55.5,FINESTEERING,2354,599459.050,02000000,10a2,17399;SOL_COMPUTED,DOPPLER_VELOCITY,0.000,0.000,1.6173,327.366332,0.1198,0*e9af3666
